[
	{
		"latitude": -0.22985,
		"longitude": -78.52495,
		"type": "localadmin",
		"name": "Quito",
		"number": null,
		"postal_code": null,
		"street": null,
		"confidence": 1,
		"region": "Pichincha",
		"region_code": "PC",
		"county": "Quito",
		"locality": null,
		"administrative_area": "Quito",
		"neighbourhood": null,
		"country": "Ecuador",
		"country_code": "ECU",
		"continent": "South America",
		"label": "Quito, PC, Ecuador"
	},
	{
		"latitude": 35.41314,
		"longitude": -89.93453,
		"type": "locality",
		"name": "Quito",
		"number": null,
		"postal_code": null,
		"street": null,
		"confidence": 1,
		"region": "Tennessee",
		"region_code": "TN",
		"county": "Tipton County",
		"locality": "Quito",
		"administrative_area": null,
		"neighbourhood": null,
		"country": "United States",
		"country_code": "USA",
		"continent": "North America",
		"label": "Quito, TN, USA"
	},
	{
		"latitude": -7.16439,
		"longitude": -79.4577,
		"type": "locality",
		"name": "Quito",
		"number": null,
		"postal_code": null,
		"street": null,
		"confidence": 1,
		"region": "La Libertad",
		"region_code": "LL",
		"county": "Chep√©n",
		"locality": "Quito",
		"administrative_area": null,
		"neighbourhood": null,
		"country": "Peru",
		"country_code": "PER",
		"continent": "South America",
		"label": "Quito, LL, Peru"
	},
	{
		"latitude": 4.70121,
		"longitude": -74.20113,
		"type": "locality",
		"name": "Quito",
		"number": null,
		"postal_code": null,
		"street": null,
		"confidence": 1,
		"region": "Cundinamarca",
		"region_code": "CU",
		"county": "Mosquera",
		"locality": "Quito",
		"administrative_area": null,
		"neighbourhood": null,
		"country": "Colombia",
		"country_code": "COL",
		"continent": "South America",
		"label": "Quito, CU, Colombia"
	},
	{
		"latitude": -6.38333,
		"longitude": 15.3,
		"type": "locality",
		"name": "Quiito",
		"number": null,
		"postal_code": null,
		"street": null,
		"confidence": 1,
		"region": null,
		"region_code": null,
		"county": null,
		"locality": "Quiito",
		"administrative_area": null,
		"neighbourhood": null,
		"country": "Angola",
		"country_code": "AGO",
		"continent": null,
		"label": "Quiito, Angola"
	},
	{
		"latitude": -13.29234,
		"longitude": -73.90631,
		"type": "locality",
		"name": "Quito",
		"number": null,
		"postal_code": null,
		"street": null,
		"confidence": 1,
		"region": "Ayacucho",
		"region_code": "AY",
		"county": "La Mar",
		"locality": "Quito",
		"administrative_area": null,
		"neighbourhood": null,
		"country": "Peru",
		"country_code": "PER",
		"continent": "South America",
		"label": "Quito, AY, Peru"
	},
	{
		"latitude": 33.43873,
		"longitude": -90.3012,
		"type": "locality",
		"name": "Quito",
		"number": null,
		"postal_code": null,
		"street": null,
		"confidence": 1,
		"region": "Mississippi",
		"region_code": "MS",
		"county": "Leflore County",
		"locality": "Quito",
		"administrative_area": null,
		"neighbourhood": null,
		"country": "United States",
		"country_code": "USA",
		"continent": "North America",
		"label": "Quito, MS, USA"
	},
	{
		"latitude": -0.221002,
		"longitude": -78.513579,
		"type": "locality",
		"name": "Quito",
		"number": null,
		"postal_code": null,
		"street": null,
		"confidence": 1,
		"region": "Pichincha",
		"region_code": "PC",
		"county": "Quito",
		"locality": "Quito",
		"administrative_area": null,
		"neighbourhood": null,
		"country": "Ecuador",
		"country_code": "ECU",
		"continent": "South America",
		"label": "Quito, PC, Ecuador"
	},
	{
		"latitude": 37.81125,
		"longitude": -107.664843,
		"type": "locality",
		"name": "Silverton",
		"number": null,
		"postal_code": null,
		"street": null,
		"confidence": 1,
		"region": "Colorado",
		"region_code": "CO",
		"county": "San Juan County",
		"locality": "Silverton",
		"administrative_area": null,
		"neighbourhood": null,
		"country": "United States",
		"country_code": "USA",
		"continent": "North America",
		"label": "Silverton, CO, USA"
	},
	{
		"latitude": 7.6,
		"longitude": -80.65,
		"type": "locality",
		"name": "Quito",
		"number": null,
		"postal_code": null,
		"street": null,
		"confidence": 1,
		"region": "Los Santos",
		"region_code": "LS",
		"county": "Macaracas",
		"locality": "Quito",
		"administrative_area": null,
		"neighbourhood": null,
		"country": "Panama",
		"country_code": "PAN",
		"continent": "North America",
		"label": "Quito, LS, Panama"
	}
]
